{
  "stations": [
    { "name": "강남역", "line": "2호선, 신분당선", "province": "서울특별시", "district": "강남구", "lat": 37.4979, "lon": 127.0276 },
    { "name": "역삼역", "line": "2호선", "province": "서울특별시", "district": "강남구", "lat": 37.5006, "lon": 127.0365 },
    { "name": "선릉역", "line": "2호선, 수인분당선", "province": "서울특별시", "district": "강남구", "lat": 37.5043, "lon": 127.0490 },
    { "name": "삼성역", "line": "2호선", "province": "서울특별시", "district": "강남구", "lat": 37.5088, "lon": 127.0631 },
    { "name": "청담역", "line": "7호선", "province": "서울특별시", "district": "강남구", "lat": 37.5191, "lon": 127.0531 },
    { "name": "강남구청역", "line": "7호선, 수인분당선", "province": "서울특별시", "district": "강남구", "lat": 37.5172, "lon": 127.0412 },
    { "name": "학동역", "line": "7호선", "province": "서울특별시", "district": "강남구", "lat": 37.5193, "lon": 127.0318 },
    { "name": "논현역", "line": "7호선, 신분당선", "province": "서울특별시", "district": "강남구", "lat": 37.5111, "lon": 127.0216 },
    { "name": "신사역", "line": "3호선, 신분당선", "province": "서울특별시", "district": "강남구", "lat": 37.5163, "lon": 127.0202 },
    { "name": "압구정역", "line": "3호선", "province": "서울특별시", "district": "강남구", "lat": 37.5271, "lon": 127.0285 },
    { "name": "압구정로데오역", "line": "수인분당선", "province": "서울특별시", "district": "강남구", "lat": 37.5274, "lon": 127.0405 },
    { "name": "한티역", "line": "수인분당선", "province": "서울특별시", "district": "강남구", "lat": 37.4962, "lon": 127.0529 },
    { "name": "도곡역", "line": "3호선, 수인분당선", "province": "서울특별시", "district": "강남구", "lat": 37.4909, "lon": 127.0554 },
    { "name": "대치역", "line": "3호선", "province": "서울특별시", "district": "강남구", "lat": 37.4946, "lon": 127.0636 },
    { "name": "학여울역", "line": "3호선", "province": "서울특별시", "district": "강남구", "lat": 37.4966, "lon": 127.0705 },
    { "name": "대청역", "line": "3호선", "province": "서울특별시", "district": "강남구", "lat": 37.4939, "lon": 127.0795 },
    { "name": "일원역", "line": "3호선", "province": "서울특별시", "district": "강남구", "lat": 37.4839, "lon": 127.0844 },
    { "name": "수서역", "line": "3호선, 수인분당선, SRT", "province": "서울특별시", "district": "강남구", "lat": 37.4874, "lon": 127.1014 },
    { "name": "매봉역", "line": "3호선", "province": "서울특별시", "district": "강남구", "lat": 37.4869, "lon": 127.0468 },

    { "name": "홍대입구역", "line": "2호선, 경의중앙선, 공항철도", "province": "서울특별시", "district": "마포구", "lat": 37.5575, "lon": 126.9244 },
    { "name": "합정역", "line": "2호선, 6호선", "province": "서울특별시", "district": "마포구", "lat": 37.5494, "lon": 126.9137 },
    { "name": "공덕역", "line": "5호선, 6호선, 공항철도, 경의중앙선", "province": "서울특별시", "district": "마포구", "lat": 37.5432, "lon": 126.9515 },
    { "name": "마포역", "line": "5호선", "province": "서울특별시", "district": "마포구", "lat": 37.5393, "lon": 126.9459 },
    { "name": "망원역", "line": "6호선", "province": "서울특별시", "district": "마포구", "lat": 37.5560, "lon": 126.9101 },
    { "name": "상수역", "line": "6호선", "province": "서울특별시", "district": "마포구", "lat": 37.5477, "lon": 126.9229 },
    { "name": "광흥창역", "line": "6호선", "province": "서울특별시", "district": "마포구", "lat": 37.5474, "lon": 126.9324 },
    { "name": "대흥역", "line": "6호선", "province": "서울특별시", "district": "마포구", "lat": 37.5478, "lon": 126.9424 },

    { "name": "신촌역", "line": "2호선", "province": "서울특별시", "district": "서대문구", "lat": 37.5552, "lon": 126.9369 },
    { "name": "이대역", "line": "2호선", "province": "서울특별시", "district": "서대문구", "lat": 37.5567, "lon": 126.9460 },
    { "name": "충정로역", "line": "2호선, 5호선", "province": "서울특별시", "district": "서대문구", "lat": 37.5599, "lon": 126.9636 },
    { "name": "홍제역", "line": "3호선", "province": "서울특별시", "district": "서대문구", "lat": 37.5888, "lon": 126.9440 },
    { "name": "무악재역", "line": "3호선", "province": "서울특별시", "district": "서대문구", "lat": 37.5724, "lon": 126.9583 },
    { "name": "독립문역", "line": "3호선", "province": "서울특별시", "district": "서대문구", "lat": 37.5746, "lon": 126.9573 },

    { "name": "성수역", "line": "2호선", "province": "서울특별시", "district": "성동구", "lat": 37.5446, "lon": 127.0559 },
    { "name": "뚝섬역", "line": "2호선", "province": "서울특별시", "district": "성동구", "lat": 37.5472, "lon": 127.0474 },
    { "name": "한양대역", "line": "2호선", "province": "서울특별시", "district": "성동구", "lat": 37.5553, "lon": 127.0437 },
    { "name": "왕십리역", "line": "2호선, 5호선, 수인분당선, 경의중앙선", "province": "서울특별시", "district": "성동구", "lat": 37.5612, "lon": 127.0382 },
    { "name": "상왕십리역", "line": "2호선", "province": "서울특별시", "district": "성동구", "lat": 37.5643, "lon": 127.0293 },
    { "name": "신금호역", "line": "5호선", "province": "서울특별시", "district": "성동구", "lat": 37.5545, "lon": 127.0203 },
    { "name": "행당역", "line": "5호선", "province": "서울특별시", "district": "성동구", "lat": 37.5574, "lon": 127.0294 },
    { "name": "마장역", "line": "5호선", "province": "서울특별시", "district": "성동구", "lat": 37.5661, "lon": 127.0427 },
    { "name": "옥수역", "line": "3호선, 경의중앙선", "province": "서울특별시", "district": "성동구", "lat": 37.5416, "lon": 127.0173 },
    { "name": "금호역", "line": "3호선", "province": "서울특별시", "district": "성동구", "lat": 37.5480, "lon": 127.0157 },
    { "name": "서울숲역", "line": "수인분당선", "province": "서울특별시", "district": "성동구", "lat": 37.5436, "lon": 127.0447 },

    { "name": "여의도역", "line": "5호선, 9호선", "province": "서울특별시", "district": "영등포구", "lat": 37.5216, "lon": 126.9241 },
    { "name": "여의나루역", "line": "5호선", "province": "서울특별시", "district": "영등포구", "lat": 37.5271, "lon": 126.9329 },
    { "name": "국회의사당역", "line": "9호선", "province": "서울특별시", "district": "영등포구", "lat": 37.5281, "lon": 126.9171 },
    { "name": "영등포역", "line": "1호선", "province": "서울특별시", "district": "영등포구", "lat": 37.5156, "lon": 126.9076 },
    { "name": "신길역", "line": "1호선, 5호선", "province": "서울특별시", "district": "영등포구", "lat": 37.5171, "lon": 126.9171 },
    { "name": "영등포구청역", "line": "2호선, 5호선", "province": "서울특별시", "district": "영등포구", "lat": 37.5249, "lon": 126.8959 },
    { "name": "영등포시장역", "line": "5호선", "province": "서울특별시", "district": "영등포구", "lat": 37.5226, "lon": 126.9052 },
    { "name": "문래역", "line": "2호선", "province": "서울특별시", "district": "영등포구", "lat": 37.5189, "lon": 126.8956 },
    { "name": "당산역", "line": "2호선, 9호선", "province": "서울특별시", "district": "영등포구", "lat": 37.5348, "lon": 126.9027 },

    { "name": "잠실역", "line": "2호선, 8호선", "province": "서울특별시", "district": "송파구", "lat": 37.5133, "lon": 127.1001 },
    { "name": "잠실나루역", "line": "2호선", "province": "서울특별시", "district": "송파구", "lat": 37.5195, "lon": 127.1009 },
    { "name": "잠실새내역", "line": "2호선", "province": "서울특별시", "district": "송파구", "lat": 37.5116, "lon": 127.0818 },
    { "name": "종합운동장역", "line": "2호선, 9호선", "province": "서울특별시", "district": "송파구", "lat": 37.5110, "lon": 127.0737 },
    { "name": "석촌역", "line": "8호선, 9호선", "province": "서울특별시", "district": "송파구", "lat": 37.5054, "lon": 127.1069 },
    { "name": "송파역", "line": "8호선", "province": "서울특별시", "district": "송파구", "lat": 37.4997, "lon": 127.1121 },
    { "name": "가락시장역", "line": "3호선, 8호선", "province": "서울특별시", "district": "송파구", "lat": 37.4923, "lon": 127.1183 },
    { "name": "문정역", "line": "8호선", "province": "서울특별시", "district": "송파구", "lat": 37.4859, "lon": 127.1224 },
    { "name": "장지역", "line": "8호선", "province": "서울특별시", "district": "송파구", "lat": 37.4787, "lon": 127.1262 },
    { "name": "오금역", "line": "3호선, 5호선", "province": "서울특별시", "district": "송파구", "lat": 37.5020, "lon": 127.1281 },
    { "name": "올림픽공원역", "line": "5호선, 9호선", "province": "서울특별시", "district": "송파구", "lat": 37.5161, "lon": 127.1309 },

    { "name": "종로3가역", "line": "1호선, 3호선, 5호선", "province": "서울특별시", "district": "종로구", "lat": 37.5716, "lon": 126.9918 },
    { "name": "종로5가역", "line": "1호선", "province": "서울특별시", "district": "종로구", "lat": 37.5709, "lon": 127.0018 },
    { "name": "동대문역", "line": "1호선, 4호선", "province": "서울특별시", "district": "종로구", "lat": 37.5711, "lon": 127.0079 },
    { "name": "혜화역", "line": "4호선", "province": "서울특별시", "district": "종로구", "lat": 37.5822, "lon": 127.0019 },
    { "name": "안국역", "line": "3호선", "province": "서울특별시", "district": "종로구", "lat": 37.5765, "lon": 126.9854 },
    { "name": "경복궁역", "line": "3호선", "province": "서울특별시", "district": "종로구", "lat": 37.5758, "lon": 126.9735 },
    { "name": "광화문역", "line": "5호선", "province": "서울특별시", "district": "종로구", "lat": 37.5714, "lon": 126.9768 },
    { "name": "종각역", "line": "1호선", "province": "서울특별시", "district": "종로구", "lat": 37.5701, "lon": 126.9829 },

    { "name": "서울역", "line": "1호선, 4호선, 공항철도, 경의중앙선", "province": "서울특별시", "district": "중구", "lat": 37.5547, "lon": 126.9706 },
    { "name": "시청역", "line": "1호선, 2호선", "province": "서울특별시", "district": "중구", "lat": 37.5657, "lon": 126.9769 },
    { "name": "을지로입구역", "line": "2호선", "province": "서울특별시", "district": "중구", "lat": 37.5660, "lon": 126.9826 },
    { "name": "을지로3가역", "line": "2호선, 3호선", "province": "서울특별시", "district": "중구", "lat": 37.5662, "lon": 126.9910 },
    { "name": "을지로4가역", "line": "2호선, 5호선", "province": "서울특별시", "district": "중구", "lat": 37.5665, "lon": 126.9980 },
    { "name": "동대문역사문화공원역", "line": "2호선, 4호선, 5호선", "province": "서울특별시", "district": "중구", "lat": 37.5651, "lon": 127.0079 },
    { "name": "신당역", "line": "2호선, 6호선", "province": "서울특별시", "district": "중구", "lat": 37.5656, "lon": 127.0194 },
    { "name": "약수역", "line": "3호선, 6호선", "province": "서울특별시", "district": "중구", "lat": 37.5543, "lon": 127.0112 },
    { "name": "청구역", "line": "5호선, 6호선", "province": "서울특별시", "district": "중구", "lat": 37.5574, "lon": 127.0163 },
    { "name": "명동역", "line": "4호선", "province": "서울특별시", "district": "중구", "lat": 37.5609, "lon": 126.9863 },
    { "name": "회현역", "line": "4호선", "province": "서울특별시", "district": "중구", "lat": 37.5585, "lon": 126.9782 },
    { "name": "충무로역", "line": "3호선, 4호선", "province": "서울특별시", "district": "중구", "lat": 37.5612, "lon": 126.9942 },

    { "name": "이태원역", "line": "6호선", "province": "서울특별시", "district": "용산구", "lat": 37.5345, "lon": 126.9942 },
    { "name": "한강진역", "line": "6호선", "province": "서울특별시", "district": "용산구", "lat": 37.5396, "lon": 127.0018 },
    { "name": "녹사평역", "line": "6호선", "province": "서울특별시", "district": "용산구", "lat": 37.5347, "lon": 126.9867 },
    { "name": "삼각지역", "line": "4호선, 6호선", "province": "서울특별시", "district": "용산구", "lat": 37.5348, "lon": 126.9733 },
    { "name": "신용산역", "line": "4호선", "province": "서울특별시", "district": "용산구", "lat": 37.5291, "lon": 126.9680 },
    { "name": "용산역", "line": "1호선, 경의중앙선", "province": "서울특별시", "district": "용산구", "lat": 37.5298, "lon": 126.9647 },
    { "name": "효창공원앞역", "line": "6호선, 경의중앙선", "province": "서울특별시", "district": "용산구", "lat": 37.5392, "lon": 126.9613 },
    { "name": "남영역", "line": "1호선", "province": "서울특별시", "district": "용산구", "lat": 37.5415, "lon": 126.9714 },
    { "name": "숙대입구역", "line": "4호선", "province": "서울특별시", "district": "용산구", "lat": 37.5446, "lon": 126.9721 },
    { "name": "이촌역", "line": "4호선, 경의중앙선", "province": "서울특별시", "district": "용산구", "lat": 37.5222, "lon": 126.9734 },

    { "name": "건대입구역", "line": "2호선, 7호선", "province": "서울특별시", "district": "광진구", "lat": 37.5404, "lon": 127.0692 },
    { "name": "구의역", "line": "2호선", "province": "서울특별시", "district": "광진구", "lat": 37.5371, "lon": 127.0859 },
    { "name": "강변역", "line": "2호선", "province": "서울특별시", "district": "광진구", "lat": 37.5351, "lon": 127.0947 },
    { "name": "군자역", "line": "5호선, 7호선", "province": "서울특별시", "district": "광진구", "lat": 37.5571, "lon": 127.0795 },
    { "name": "어린이대공원역", "line": "7호선", "province": "서울특별시", "district": "광진구", "lat": 37.5480, "lon": 127.0746 },

    { "name": "노원역", "line": "4호선, 7호선", "province": "서울특별시", "district": "노원구", "lat": 37.6548, "lon": 127.0605 },
    { "name": "상계역", "line": "4호선", "province": "서울특별시", "district": "노원구", "lat": 37.6612, "lon": 127.0778 },
    { "name": "당고개역", "line": "4호선", "province": "서울특별시", "district": "노원구", "lat": 37.6702, "lon": 127.0790 },
    { "name": "태릉입구역", "line": "6호선, 7호선", "province": "서울특별시", "district": "노원구", "lat": 37.6180, "lon": 127.0780 },
    { "name": "석계역", "line": "1호선, 6호선", "province": "서울특별시", "district": "노원구", "lat": 37.6152, "lon": 127.0655 },
    { "name": "광운대역", "line": "1호선, 경춘선", "province": "서울특별시", "district": "노원구", "lat": 37.6225, "lon": 127.0617 },

    { "name": "창동역", "line": "1호선, 4호선", "province": "서울특별시", "district": "도봉구", "lat": 37.6532, "lon": 127.0477 },
    { "name": "방학역", "line": "1호선", "province": "서울특별시", "district": "도봉구", "lat": 37.6676, "lon": 127.0443 },
    { "name": "도봉역", "line": "1호선", "province": "서울특별시", "district": "도봉구", "lat": 37.6796, "lon": 127.0455 },
    { "name": "도봉산역", "line": "1호선, 7호선", "province": "서울특별시", "district": "도봉구", "lat": 37.6893, "lon": 127.0429 },
    { "name": "쌍문역", "line": "4호선", "province": "서울특별시", "district": "도봉구", "lat": 37.6486, "lon": 127.0347 },

    { "name": "수유역", "line": "4호선", "province": "서울특별시", "district": "강북구", "lat": 37.6380, "lon": 127.0257 },
    { "name": "미아역", "line": "4호선", "province": "서울특별시", "district": "강북구", "lat": 37.6264, "lon": 127.0258 },
    { "name": "미아사거리역", "line": "4호선", "province": "서울특별시", "district": "강북구", "lat": 37.6133, "lon": 127.0301 },

    { "name": "연신내역", "line": "3호선, 6호선", "province": "서울특별시", "district": "은평구", "lat": 37.6190, "lon": 126.9210 },
    { "name": "불광역", "line": "3호선, 6호선", "province": "서울특별시", "district": "은평구", "lat": 37.6104, "lon": 126.9298 },
    { "name": "녹번역", "line": "3호선", "province": "서울특별시", "district": "은평구", "lat": 37.6009, "lon": 126.9357 },
    { "name": "구파발역", "line": "3호선", "province": "서울특별시", "district": "은평구", "lat": 37.6368, "lon": 126.9189 },

    { "name": "고속터미널역", "line": "3호선, 7호선, 9호선", "province": "서울특별시", "district": "서초구", "lat": 37.5045, "lon": 127.0049 },
    { "name": "양재역", "line": "3호선, 신분당선", "province": "서울특별시", "district": "서초구", "lat": 37.4841, "lon": 127.0346 },
    { "name": "교대역", "line": "2호선, 3호선", "province": "서울특별시", "district": "서초구", "lat": 37.4934, "lon": 127.0142 },
    { "name": "서초역", "line": "2호선", "province": "서울특별시", "district": "서초구", "lat": 37.4918, "lon": 127.0076 },
    { "name": "방배역", "line": "2호선", "province": "서울특별시", "district": "서초구", "lat": 37.4814, "lon": 126.9976 },
    { "name": "사당역", "line": "2호선, 4호선", "province": "서울특별시", "district": "서초구", "lat": 37.4765, "lon": 126.9815 },
    { "name": "이수역", "line": "4호선, 7호선", "province": "서울특별시", "district": "서초구", "lat": 37.4863, "lon": 126.9822 },

    { "name": "신림역", "line": "2호선, 신림선", "province": "서울특별시", "district": "관악구", "lat": 37.4842, "lon": 126.9297 },
    { "name": "봉천역", "line": "2호선", "province": "서울특별시", "district": "관악구", "lat": 37.4824, "lon": 126.9416 },
    { "name": "서울대입구역", "line": "2호선", "province": "서울특별시", "district": "관악구", "lat": 37.4812, "lon": 126.9527 },
    { "name": "낙성대역", "line": "2호선", "province": "서울특별시", "district": "관악구", "lat": 37.4769, "lon": 126.9637 },

    { "name": "신도림역", "line": "1호선, 2호선", "province": "서울특별시", "district": "구로구", "lat": 37.5088, "lon": 126.8912 },
    { "name": "구로역", "line": "1호선", "province": "서울특별시", "district": "구로구", "lat": 37.5030, "lon": 126.8821 },
    { "name": "가산디지털단지역", "line": "1호선, 7호선", "province": "서울특별시", "district": "금천구", "lat": 37.4811, "lon": 126.8824 },
    { "name": "독산역", "line": "1호선", "province": "서울특별시", "district": "금천구", "lat": 37.4687, "lon": 126.8891 },

    { "name": "노량진역", "line": "1호선, 9호선", "province": "서울특별시", "district": "동작구", "lat": 37.5142, "lon": 126.9427 },
    { "name": "숭실대입구역", "line": "7호선", "province": "서울특별시", "district": "동작구", "lat": 37.4962, "lon": 126.9537 },
    { "name": "상도역", "line": "7호선", "province": "서울특별시", "district": "동작구", "lat": 37.5029, "lon": 126.9479 },

    { "name": "천호역", "line": "5호선, 8호선", "province": "서울특별시", "district": "강동구", "lat": 37.5385, "lon": 127.1235 },
    { "name": "강동역", "line": "5호선", "province": "서울특별시", "district": "강동구", "lat": 37.5358, "lon": 127.1325 },
    { "name": "길동역", "line": "5호선", "province": "서울특별시", "district": "강동구", "lat": 37.5378, "lon": 127.1400 },

    { "name": "성신여대입구역", "line": "4호선, 우이신설선", "province": "서울특별시", "district": "성북구", "lat": 37.5927, "lon": 127.0165 },
    { "name": "한성대입구역", "line": "4호선", "province": "서울특별시", "district": "성북구", "lat": 37.5884, "lon": 127.0061 },
    { "name": "길음역", "line": "4호선", "province": "서울특별시", "district": "성북구", "lat": 37.6034, "lon": 127.0250 },

    { "name": "상봉역", "line": "7호선, 경의중앙선, 경춘선", "province": "서울특별시", "district": "중랑구", "lat": 37.5958, "lon": 127.0860 },
    { "name": "면목역", "line": "7호선", "province": "서울특별시", "district": "중랑구", "lat": 37.5786, "lon": 127.0874 },

    { "name": "회기역", "line": "1호선, 경의중앙선, 경춘선", "province": "서울특별시", "district": "동대문구", "lat": 37.5898, "lon": 127.0576 },
    { "name": "청량리역", "line": "1호선, 수인분당선, 경의중앙선, 경춘선", "province": "서울특별시", "district": "동대문구", "lat": 37.5801, "lon": 127.0450 },

    { "name": "목동역", "line": "5호선", "province": "서울특별시", "district": "양천구", "lat": 37.5259, "lon": 126.8638 },
    { "name": "오목교역", "line": "5호선", "province": "서울특별시", "district": "양천구", "lat": 37.5245, "lon": 126.8753 },

    { "name": "발산역", "line": "5호선", "province": "서울특별시", "district": "강서구", "lat": 37.5586, "lon": 126.8382 },
    { "name": "마곡역", "line": "5호선", "province": "서울특별시", "district": "강서구", "lat": 37.5601, "lon": 126.8255 },

    { "name": "의정부역", "line": "1호선", "province": "경기도", "district": "의정부시", "lat": 37.7384, "lon": 127.0459 },
    { "name": "회룡역", "line": "1호선, 의정부경전철", "province": "경기도", "district": "의정부시", "lat": 37.7247, "lon": 127.0469 },
    { "name": "망월사역", "line": "1호선", "province": "경기도", "district": "의정부시", "lat": 37.7099, "lon": 127.0470 },
    { "name": "가능역", "line": "1호선", "province": "경기도", "district": "의정부시", "lat": 37.7485, "lon": 127.0443 },

    { "name": "야탑역", "line": "수인분당선", "province": "경기도", "district": "성남시 분당구", "lat": 37.4111, "lon": 127.1287 },
    { "name": "서현역", "line": "수인분당선", "province": "경기도", "district": "성남시 분당구", "lat": 37.3850, "lon": 127.1232 },
    { "name": "수내역", "line": "수인분당선", "province": "경기도", "district": "성남시 분당구", "lat": 37.3784, "lon": 127.1143 },
    { "name": "정자역", "line": "수인분당선, 신분당선", "province": "경기도", "district": "성남시 분당구", "lat": 37.3670, "lon": 127.1084 },
    { "name": "판교역", "line": "신분당선, 경강선", "province": "경기도", "district": "성남시 분당구", "lat": 37.3948, "lon": 127.1112 },

    { "name": "태평역", "line": "수인분당선", "province": "경기도", "district": "성남시 수정구", "lat": 37.4400, "lon": 127.1278 },
    { "name": "모란역", "line": "8호선, 수인분당선", "province": "경기도", "district": "성남시 수정구", "lat": 37.4321, "lon": 127.1291 },

    { "name": "광교역", "line": "신분당선", "province": "경기도", "district": "수원시 영통구", "lat": 37.3021, "lon": 127.0443 },
    { "name": "광교중앙역", "line": "신분당선", "province": "경기도", "district": "수원시 영통구", "lat": 37.2886, "lon": 127.0514 },
    { "name": "망포역", "line": "수인분당선", "province": "경기도", "district": "수원시 영통구", "lat": 37.2458, "lon": 127.0577 },

    { "name": "수원역", "line": "1호선, 수인분당선, KTX", "province": "경기도", "district": "수원시 팔달구", "lat": 37.2657, "lon": 127.0003 },
    { "name": "수원시청역", "line": "수인분당선", "province": "경기도", "district": "수원시 팔달구", "lat": 37.2618, "lon": 127.0308 },

    { "name": "성균관대역", "line": "1호선", "province": "경기도", "district": "수원시 장안구", "lat": 37.2998, "lon": 126.9708 },

    { "name": "범계역", "line": "4호선", "province": "경기도", "district": "안양시 동안구", "lat": 37.3897, "lon": 126.9507 },
    { "name": "평촌역", "line": "4호선", "province": "경기도", "district": "안양시 동안구", "lat": 37.3943, "lon": 126.9639 },

    { "name": "안양역", "line": "1호선", "province": "경기도", "district": "안양시 만안구", "lat": 37.4019, "lon": 126.9229 },

    { "name": "부천역", "line": "1호선", "province": "경기도", "district": "부천시 원미구", "lat": 37.4841, "lon": 126.7827 },
    { "name": "상동역", "line": "7호선", "province": "경기도", "district": "부천시 원미구", "lat": 37.5057, "lon": 126.7531 },
    { "name": "신중동역", "line": "7호선", "province": "경기도", "district": "부천시 원미구", "lat": 37.5030, "lon": 126.7758 }
  ]
}
